     3.02           OBSERVATION DATA    M: Mixed            RINEX VERSION / TYPE
RTKCONV 2.4.3 b29                       20171010 113534 UTC PGM / RUN BY / DATE 
log: C:\Users\hosomi.OPTIPLEX9020\Desktop\TIME SPAN\m8p.ub  COMMENT             
format: u-blox                                              COMMENT             
                                                            MARKER NAME         
                                                            MARKER NUMBER       
                                                            MARKER TYPE         
                                                            OBSERVER / AGENCY   
                                                            REC # / TYPE / VERS 
                                                            ANT # / TYPE        
 -3961930.1709  3348919.2715  3698185.8058                  APPROX POSITION XYZ 
        0.0000        0.0000        0.0000                  ANTENNA: DELTA H/E/N
G    4 C1C L1C D1C S1C                                      SYS / # / OBS TYPES 
R    4 C1C L1C D1C S1C                                      SYS / # / OBS TYPES 
E    4 C1C L1C D1C S1C                                      SYS / # / OBS TYPES 
J    4 C1C L1C D1C S1C                                      SYS / # / OBS TYPES 
S    4 C1C L1C D1C S1C                                      SYS / # / OBS TYPES 
C    4 C1I L1I D1I S1I                                      SYS / # / OBS TYPES 
  2017    10    10    10    23   27.9980000     GPS         TIME OF FIRST OBS   
  2017    10    10    10    30   36.9990000     GPS         TIME OF LAST OBS    
G                                                           SYS / PHASE SHIFT   
R                                                           SYS / PHASE SHIFT   
E                                                           SYS / PHASE SHIFT   
J                                                           SYS / PHASE SHIFT   
S                                                           SYS / PHASE SHIFT   
C                                                           SYS / PHASE SHIFT   
  0                                                         GLONASS SLOT / FRQ #
 C1C    0.000 C1P    0.000 C2C    0.000 C2P    0.000        GLONASS COD/PHS/BIS 
                                                            END OF HEADER       
> 2017 10 10 10 23 27.9980000  0 15                     
G24  19614059.014   103072573.711        -466.236          50.000  
G15  20491805.489   107685166.098       -1622.904          49.000  
G20  20540340.016   107940213.008       -2961.014          47.000  
G18  20993673.752   110322501.334        1503.152          47.000  
G13  22521607.514   118351848.428       -2773.187          36.000  
C 3  37426996.776   194892176.265        -509.037          41.000  
G12  22360636.436   117505938.0962       2951.065          47.000  
G10  23006928.215   120902235.128        2753.575          43.000  
C 6  35997218.263   187446904.503         -19.224          42.000  
C 1  36815731.737   191709137.256        -488.561          43.000  
C 4  37071449.471   193040731.806        -514.382          43.000  
J 1  37221667.352   195601183.292          88.511          45.000  
J 2  36951579.399   194181862.887       -1161.011          45.000  
G25  24970952.874                        3273.055          26.000  
G21  22800925.672   119819659.964       -1989.054          45.000  
> 2017 10 10 10 23 28.1980000  0 15                     
G24  19614076.813   103072666.961        -466.393          50.000  
G15  20491867.298   107685490.719       -1623.185          49.000  
G20  20540452.552   107940805.275       -2961.609          47.000  
G18  20993616.559   110322200.725        1502.864          47.000  
G13  22521713.280   118352403.108       -2773.566          36.000  
C 3  37427016.337   194892278.070        -508.859          41.000  
G12  22360524.065   117505347.9612       2950.671          47.000  
G10  23006823.452   120901684.383        2753.549          43.000  
C 6  35997219.014   187446908.359         -19.477          42.000  
C 1  36815750.601   191709235.026        -489.045          43.000  
C 4  37071469.250   193040834.718        -514.667          43.000  
J 1  37221663.844   195601165.611          88.229          45.000  
J 2  36951623.514   194182095.096       -1161.230          45.000  
G25  24970827.834                        3272.793          26.000  
G21  22801001.415   119820057.753       -1989.170          45.000  
> 2017 10 10 10 23 28.3980000  0 15                     
G24  19614094.534   103072760.246        -466.308          50.000  
G15  20491929.011   107685815.342       -1622.953          48.000  
G20  20540565.254   107941397.540       -2961.378          47.000  
G18  20993559.531   110321900.124        1503.128          47.000  
G13  22521818.897   118352957.779       -2773.111          36.000  
C 3  37427036.030   194892379.908        -508.969          41.000  
G12  22360411.834   117504757.8222       2950.610          47.000  
G10  23006718.585   120901133.660        2753.847          43.000  
C 6  35997219.773   187446912.198         -18.781          42.000  
C 1  36815769.369   191709332.782        -488.914          43.000  
C 4  37071489.021   193040937.628        -514.562          43.000  
J 1  37221660.320   195601147.919          88.563          45.000  
J 2  36951667.680   194182327.306       -1160.955          45.000  
G25  24970702.864   131221933.6322       3273.461          27.000  
G21  22801077.253   119820455.575       -1989.063          45.000  
> 2017 10 10 10 23 28.5980000  0 15                     
G24  19614112.359   103072853.562        -466.646          50.000  
G15  20491990.750   107686139.999       -1623.236          49.000  
G20  20540677.869   107941989.853       -2961.642          47.000  
G18  20993502.268   110321599.574        1502.663          47.000  
G13  22521924.340   118353512.489       -2773.636          36.000  
C 3  37427055.504   194892481.749        -509.313          41.000  
G12  22360299.647   117504167.7082       2950.590          47.000  
G10  23006613.727   120900582.973        2753.312          43.000  
C 6  35997220.698   187446916.091         -19.229          42.000  
C 1  36815788.372   191709430.544        -488.726          43.000  
C 4  37071508.688   193041040.557        -514.793          43.000  
J 1  37221656.925   195601130.256          88.367          45.000  
J 2  36951711.925   194182559.537       -1161.173          45.000  
G25  24970578.942   131221279.0752       3272.651          27.000  
G21  22801153.022   119820853.419       -1989.222          45.000  
> 2017 10 10 10 23 28.7980000  0 16                     
G24  19614130.080   103072946.921        -466.841          50.000  
G15  20492052.480   107686464.680       -1623.269          48.000  
G20  20540790.493   107942582.199       -2961.698          47.000  
G18  20993445.215   110321299.044        1502.610          47.000  
G13  22522029.984   118354067.228       -2773.869          36.000  
C 3  37427075.092   194892583.606        -509.437          41.000  
G12  22360187.364   117503577.6282       2950.528          47.000  
G10  23006508.973   120900032.292        2753.473          43.000  
C 6  35997221.465   187446919.995         -19.428          42.000  
C 1  36815807.183   191709528.350        -488.771          43.000  
C 4  37071528.433   193041143.507        -514.763          43.000  
G 5  24419582.253                       -4075.883          22.000  
J 1  37221653.505   195601112.613          88.213          45.000  
J 2  36951756.039   194182791.795       -1161.217          45.000  
G25  24970454.827   131220624.5532       3272.489          27.000  
G21  22801228.782   119821251.305       -1989.423          45.000  
> 2017 10 10 10 23 28.9980000  0 15                     
G24  19614147.949   103073040.333        -467.303          50.000  
G15  20492114.306   107686789.421       -1623.810          49.000  
G20  20540903.248   107943174.600       -2962.096          47.000  
G18  20993388.196   110320998.573        1502.138          47.000  
G13  22522135.427   118354622.002       -2774.498          36.000  
C 3  37427094.619   194892685.499        -509.579          41.000  
G12  22360074.975   117502987.5902       2950.063          47.000  
G10  23006404.010   120899481.663        2753.149          43.000  
C 6  35997222.286   187446923.922         -19.637          42.000  
C 1  36815826.099   191709626.181        -489.268          43.000  
C 4  37071548.169   193041246.494        -515.033          43.000  
J 1  37221650.216   195601095.007          87.987          45.000  
J 2  36951800.153   194183024.088       -1161.649          45.000  
G25  24970328.234   131219969.9852       3272.711          27.000  
G21  22801304.481   119821649.235       -1989.803          45.000  
> 2017 10 10 10 23 29.1980000  0 15                     
G24  19614165.800   103073133.739        -466.874          50.000  
G15  20492176.019   107687114.131       -1623.389          49.000  
G20  20541015.880   107943767.006       -2961.924          47.000  
G18  20993330.977   110320698.084        1502.444          47.000  
G13  22522241.149   118355176.742       -2773.620          36.000  
C 3  37427114.233   194892787.382        -509.355          41.000  
G12  22359962.727   117502397.5342       2950.449          47.000  
G10  23006299.248   120898931.027        2753.240          43.000  
C 6  35997223.080   187446927.830         -19.530          42.000  
C 1  36815844.946   191709723.999        -489.089          43.000  
C 4  37071568.045   193041349.443        -514.559          43.000  
J 1  37221646.804   195601077.373          88.308          45.000  
J 2  36951844.355   194183256.352       -1161.113          45.000  
G25  24970202.218   131219315.4362       3272.851          27.000  
G21  22801380.241   119822047.152       -1989.261          45.000  
> 2017 10 10 10 23 29.3980000  0 15                     
G24  19614183.547   103073227.154        -466.905          50.000  
G15  20492237.819   107687438.840       -1623.349          49.000  
G20  20541128.591   107944359.403       -2961.865          47.000  
G18  20993273.836   110320397.598        1502.402          47.000  
G13  22522346.766   118355731.482       -2773.803          36.000  
C 3  37427133.804   194892889.224        -509.140          41.000  
G12  22359850.443   117501807.4692       2950.504          47.000  
G10  23006194.424   120898380.365        2753.554          43.000  
C 6  35997223.743   187446931.707         -19.150          42.000  
C 1  36815863.757   191709821.758        -488.600          43.000  
C 4  37071587.851   193041452.398        -514.626          43.000  
J 1  37221643.419   195601059.721          88.569          45.000  
J 2  36951888.390   194183488.611       -1161.135          45.000  
G25  24970076.751   131218660.8362       3273.057          27.000  
G21  22801455.993   119822445.079       -1989.451          45.000  
> 2017 10 10 10 23 29.5980000  0 15                     
G24  19614201.233   103073320.598        -467.148          50.000  
G15  20492299.575   107687763.570       -1623.582          49.000  
G20  20541241.276   107944951.830       -2962.130          47.000  
G18  20993216.669   110320097.134        1502.244          47.000  
G13  22522452.410   118356286.236       -2773.865          36.000  
C 3  37427153.226   194892991.089        -509.462          41.000  
G12  22359738.177   117501217.4212       2950.264          47.000  
G10  23006089.644   120897829.722        2753.247          43.000  
C 6  35997224.414   187446935.610         -19.374          42.000  
C 1  36815882.551   191709919.558        -488.783          43.000  
C 4  37071607.604   193041555.335        -514.708          43.000  
J 1  37221640.016   195601042.081          88.467          45.000  
J 2  36951932.635   194183720.868       -1161.304          45.000  
G25  24969952.636   131218006.2492       3272.984          27.000  
G21  22801531.727   119822843.015       -1989.709          45.000  
> 2017 10 10 10 23 29.7980000  0 15                     
G24  19614219.023   103073414.036        -467.444          50.000  
G15  20492361.471   107688088.276       -1623.712          49.000  
G20  20541354.065   107945544.242       -2962.257          47.000  
G18  20993159.677   110319796.652        1502.121          47.000  
G13  22522558.010   118356840.938       -2773.873          36.000  
C 3  37427172.761   194893092.904        -509.169          41.000  
G12  22359625.903   117500627.3482       2950.183          47.000  
G10  23005984.856   120897279.061        2753.189          43.000  
C 6  35997225.069   187446939.467         -19.623          42.000  
C 1  36815901.188   191710017.334        -489.121          43.000  
C 4  37071627.358   193041658.260        -514.875          43.000  
J 1  37221636.578   195601024.429          88.218          45.000  
J 2  36951976.776   194183953.105       -1161.350          45.000  
G25  24969827.823   131217351.6202       3273.443          27.000  
G21  22801607.452   119823240.945       -1989.976          45.000  
> 2017 10 10 10 23 29.9980000  0 15                     
G24  19614236.788   103073507.523        -467.414          50.000  
G15  20492423.280   107688413.026       -1623.748          49.000  
G20  20541466.706   107946136.708       -2962.363          47.000  
G18  20993102.519   110319496.204        1502.400          47.000  
G13  22522663.654   118357395.694       -2773.545          37.000  
C 3  37427192.209   194893194.766        -509.177          41.000  
G12  22359513.593   117500037.3142       2950.226          47.000  
G10  23005880.041   120896728.442        2753.218          43.000  
C 6  35997225.872   187446943.353         -19.300          42.000  
C 1  36815920.086   191710115.121        -488.958          43.000  
C 4  37071647.094   193041761.204        -514.696          43.000  
J 1  37221633.280   195601006.790          88.276          45.000  
J 2  36952021.030   194184185.370       -1161.248          45.000  
G25  24969703.377   131216697.0272       3273.129          27.000  
G21  22801683.195   119823638.903       -1989.641          45.000  
> 2017 10 10 10 23 30.1980000  0 15                     
G24  19614254.439   103073601.022        -467.456          50.000  
G15  20492485.088   107688737.779       -1623.783          49.000  
G20  20541579.444   107946729.179       -2962.236          47.000  
G18  20993045.291   110319195.793        1502.124          47.000  
G13  22522769.201   118357950.442       -2773.400          37.000  
C 3  37427211.789   194893296.611        -509.049          41.000  
G12  22359401.345   117499447.2822       2950.220          47.000  
G10  23005775.122   120896177.805        2753.315          43.000  
C 6  35997226.578   187446947.253         -19.576          42.000  
C 1  36815938.994   191710212.902        -488.725          43.000  
C 4  37071666.830   193041864.137        -514.492          43.000  
J 1  37221630.043   195600989.151          88.251          45.000  
J 2  36952065.327   194184417.626       -1161.044          45.000  
G25  24969577.884   131216042.4532       3272.878          27.000  
G21  22801759.042   119824036.886       -1989.720          45.000  
> 2017 10 10 10 23 30.3980000  0 15                     
G24  19614272.177   103073694.571        -467.750          50.000  
G15  20492546.792   107689062.564       -1624.028          49.000  
G20  20541692.137   107947321.703       -2962.677          47.000  
G18  20992988.194   110318895.418        1501.658          47.000  
G13  22522874.845   118358505.248       -2773.986          37.000  
C 3  37427231.368   194893398.494        -509.401          41.000  
G12  22359289.053   117498857.2842       2950.012          47.000  
G10  23005670.385   120895627.227        2752.880          43.000  
C 6  35997227.320   187446951.155         -19.611          42.000  
C 1  36815957.840   191710310.720        -488.990          43.000  
C 4  37071686.698   193041967.119        -514.742          43.000  
J 1  37221626.771   195600971.534          88.141          45.000  
J 2  36952109.546   194184649.920       -1161.348          45.000  
G25  24969453.272   131215387.8492       3272.818          27.000  
G21  22801834.706   119824434.918       -1990.137          45.000  
> 2017 10 10 10 23 30.5980000  0 15                     
G24  19614289.985   103073788.119        -467.699          50.000  
G15  20492608.575   107689387.334       -1623.871          49.000  
G20  20541804.892   107947914.220       -2962.595          47.000  
G18  20992930.966   110318595.026        1501.949          47.000  
G13  22522980.331   118359060.011       -2773.783          37.000  
C 3  37427250.912   194893500.353        -509.435          41.000  
G12  22359176.717   117498267.2722       2950.074          47.000  
G10  23005565.728   120895076.618        2753.132          43.000  
C 6  35997228.018   187446955.019         -18.874          42.000  
C 1  36815976.834   191710408.522        -488.915          43.000  
C 4  37071706.425   193042070.063        -514.628          43.000  
J 1  37221623.386   195600953.898          88.398          45.000  
J 2  36952153.573   194184882.194       -1161.224          45.000  
G25  24969328.433   131214733.2252       3273.156          27.000  
G21  22801910.615   119824832.930       -1990.199          45.000  
> 2017 10 10 10 23 30.7980000  0 15                     
G24  19614307.740   103073881.644        -467.822          50.000  
G15  20492670.532   107689712.081       -1623.741          49.000  
G20  20541917.629   107948506.711       -2962.688          47.000  
G18  20992873.755   110318294.611        1501.935          47.000  
G13  22523085.931   118359614.741       -2773.834          37.000  
C 3  37427270.543   194893602.172        -509.355          41.000  
G12  22359064.477   117497677.2302       2950.104          47.000  
G10  23005460.983   120894525.983        2753.062          43.000  
C 6  35997228.664   187446958.889         -19.240          42.000  
C 1  36815995.567   191710506.280        -489.034          43.000  
C 4  37071726.231   193042172.984        -514.801          43.000  
J 1  37221620.044   195600936.233          88.334          45.000  
J 2  36952197.818   194185114.425       -1161.236          45.000  
G25  24969202.983   131214078.5892       3273.135          27.000  
G21  22801986.392   119825230.913       -1990.091          45.000  
> 2017 10 10 10 23 30.9980000  0 15                     
G24  19614325.531   103073975.192        -467.875          50.000  
G15  20492732.297   107690036.830       -1623.703          49.000  
G20  20542030.453   107949099.216       -2962.501          47.000  
G18  20992816.580   110317994.191        1502.233          47.000  
G13  22523191.636   118360169.462       -2773.648          37.000  
C 3  37427290.114   194893703.980        -509.227          41.000  
G12  22358952.211   117497087.1842       2950.229          47.000  
G10  23005356.125   120893975.346        2753.161          43.000  
C 6  35997229.396   187446962.730         -19.209          42.000  
C 1  36816014.195   191710604.025        -488.967          43.000  
C 4  37071746.133   193042275.878        -514.436          43.000  
J 1  37221616.511   195600918.555          88.425          45.000  
J 2  36952242.037   194185346.658       -1161.141          45.000  
G25  24969077.656   131213423.9372       3273.140          27.000  
G21  22802062.187   119825628.907       -1989.899          45.000  
> 2017 10 10 10 23 31.1980000  0 15                     
G24  19614343.269   103074068.774        -467.901          50.000  
G15  20492794.210   107690361.608       -1623.959          49.000  
G20  20542143.173   107949691.766       -2962.762          47.000  
G18  20992759.395   110317693.828        1501.860          47.000  
G13  22523297.201   118360724.225       -2773.566          37.000  
C 3  37427309.667   194893805.814        -509.028          41.000  
G12  22358839.936   117496497.1642       2950.228          47.000  
G10  23005251.441   120893424.723        2753.266          43.000  
C 6  35997230.033   187446966.595         -19.158          42.000  
C 1  36816033.129   191710701.777        -488.352          43.000  
C 4  37071765.756   193042378.795        -514.476          43.000  
J 1  37221613.178   195600900.917          88.219          45.000  
J 2  36952286.229   194185578.907       -1161.207          45.000  
G25  24968953.236   131212769.2652       3273.128          27.000  
G21  22802137.939   119826026.939       -1990.131          45.000  
> 2017 10 10 10 23 31.3980000  0 15                     
G24  19614361.059   103074162.337        -467.711          50.000  
G15  20492856.080   107690686.350       -1623.546          49.000  
G20  20542255.945   107950284.288       -2962.513          47.000  
G18  20992702.185   110317393.432        1502.128          47.000  
G13  22523402.731   118361278.928       -2773.342          37.000  
C 3  37427329.229   194893907.589        -508.619          41.000  
G12  22358727.574   117495906.614        2950.413          47.000  
G10  23005146.556   120892874.089        2753.451          43.000  
C 6  35997230.653   187446970.416         -19.049          42.000  
C 1  36816051.923   191710799.519        -488.535          43.000  
C 4  37071785.588   193042481.673        -514.135          43.000  
J 1  37221609.819   195600883.212          88.627          45.000  
J 2  36952330.535   194185811.117       -1160.864          45.000  
G25  24968829.287   131212114.068        3273.743          27.000  
G21  22802213.751   119826424.945       -1989.984          45.000  
> 2017 10 10 10 23 31.5980000  0 15                     
G24  19614378.710   103074255.927        -468.119          50.000  
G15  20492917.871   107691011.119       -1623.922          49.000  
G20  20542368.726   107950876.834       -2962.872          47.000  
G18  20992645.026   110317093.057        1501.774          47.000  
G13  22523508.375   118361833.638       -2773.041          37.000  
C 3  37427348.694   194894009.380        -508.890          41.000  
G12  22358615.239   117495316.578        2950.195          47.000  
G10  23005041.611   120892323.460        2753.119          43.000  
C 6  35997231.290   187446974.233         -19.033          42.000  
C 1  36816070.629   191710897.237        -488.741          43.000  
C 4  37071805.333   193042584.557        -514.268          43.000  
J 1  37221606.451   195600865.526          88.371          45.000  
J 2  36952374.745   194186043.340       -1161.166          45.000  
G25  24968703.480   131211459.328        3273.471          27.000  
G21  22802289.424   119826822.956       -1990.002          45.000  
> 2017 10 10 10 23 31.7980000  0 15                     
G24  19614396.510   103074349.521        -467.882          50.000  
G15  20492979.645   107691335.875       -1623.646          49.000  
G20  20542481.437   107951469.378       -2962.537          47.000  
G18  20992587.807   110316792.680        1502.089          47.000  
G13  22523613.958   118362388.384       -2773.332          37.000  
C 3  37427368.273   194894111.166        -508.858          41.000  
G12  22358502.920   117494726.539        2950.409          47.000  
G10  23004936.892   120891772.824        2753.198          43.000  
C 6  35997232.058   187446978.049         -19.005          42.000  
C 1  36816089.484   191710994.941        -488.055          43.000  
C 4  37071825.104   193042687.435        -514.305          43.000  
J 1  37221603.126   195600847.819          88.776          45.000  
J 2  36952418.956   194186275.538       -1160.861          45.000  
G25  24968578.100   131210804.646        3273.686          27.000  
G21  22802365.167   119827220.990       -1990.001          45.000  
> 2017 10 10 10 23 31.9980000  0 15                     
G24  19614414.230   103074443.112        -467.995          50.000  
G15  20493041.427   107691660.618       -1623.720          49.000  
G20  20542594.148   107952061.924       -2962.748          47.000  
G18  20992530.570   110316492.290        1501.967          47.000  
G13  22523719.523   118362943.081       -2773.595          37.000  
C 3  37427387.783   194894212.910        -508.577          41.000  
G12  22358390.698   117494136.476        2950.215          47.000  
G10  23004832.077   120891222.159        2753.288          43.000  
C 6  35997232.747   187446981.827         -18.974          42.000  
C 1  36816108.287   191711092.642        -488.264          43.000  
C 4  37071844.831   193042790.284        -514.532          43.000  
J 1  37221599.741   195600830.099          88.589          45.000  
J 2  36952463.052   194186507.718       -1160.840          45.000  
G25  24968453.811   131210149.891        3273.707          27.000  
G21  22802440.848   119827619.005       -1990.168          45.000  
> 2017 10 10 10 23 32.1980000  0 15                     
G24  19614432.021   103074536.715        -468.087          50.000  
G15  20493103.253   107691985.356       -1623.699          49.000  
G20  20542706.998   107952654.472       -2962.772          47.000  
G18  20992473.404   110316191.915        1501.849          47.000  
G13  22523825.140   118363497.777       -2773.427          37.000  
C 3  37427407.371   194894314.651        -508.631          41.000  
G12  22358278.406   117493546.411        2950.359          47.000  
G10  23004727.323   120890671.516        2753.173          43.000  
C 6  35997233.506   187446985.593         -18.722          42.000  
C 1  36816127.020   191711190.324        -488.432          43.000  
C 4  37071864.594   193042893.110        -514.242          43.000  
J 1  37221596.364   195600812.369          88.659          45.000  
J 2  36952507.097   194186739.890       -1160.732          45.000  
G25  24968328.850   131209495.109        3273.871          27.000  
G21  22802516.565   119828017.018       -1990.138          45.000  
> 2017 10 10 10 23 32.3980000  0 15                     
G24  19614449.907   103074630.358        -468.288          50.000  
G15  20493165.106   107692310.134       -1623.771          49.000  
G20  20542819.735   107953247.068       -2962.973          47.000  
G18  20992416.114   110315891.578        1501.522          47.000  
G13  22523930.679   118364052.501       -2773.578          37.000  
C 3  37427426.863   194894416.416        -508.886          41.000  
G12  22358166.044   117492956.378        2950.260          47.000  
G10  23004622.509   120890120.872        2753.272          43.000  
C 6  35997234.187   187446989.391         -19.004          42.000  
C 1  36816145.857   191711288.012        -488.259          43.000  
C 4  37071884.478   193042995.959        -514.073          43.000  
J 1  37221592.997   195600794.653          88.625          45.000  
J 2  36952551.228   194186972.086       -1160.873          45.000  
G25  24968203.574   131208840.371        3273.907          27.000  
G21  22802592.264   119828415.074       -1990.210          45.000  
> 2017 10 10 10 23 32.5980000  0 15                     
G24  19614467.820   103074724.039        -468.533          50.000  
G15  20493226.941   107692634.942       -1624.076          49.000  
G20  20542932.603   107953839.689       -2963.080          47.000  
G18  20992359.026   110315591.257        1501.555          47.000  
G13  22524036.270   118364607.250       -2773.823          37.000  
C 3  37427446.529   194894518.197        -508.945          41.000  
G12  22358053.813   117492366.371        2949.985          47.000  
G10  23004517.703   120889570.273        2753.212          43.000  
C 6  35997234.919   187446993.206         -19.167          42.000  
C 1  36816164.677   191711385.743        -488.670          43.000  
C 4  37071904.328   193043098.833        -514.293          43.000  
J 1  37221589.585   195600776.967          88.352          45.000  
J 2  36952595.482   194187204.306       -1161.085          45.000  
G25  24968079.154   131208185.607        3273.526          27.000  
G21  22802667.998   119828813.164       -1990.516          45.000  
> 2017 10 10 10 23 32.7980000  0 15                     
G24  19614485.637   103074817.731        -468.570          50.000  
G15  20493288.924   107692959.755       -1624.203          49.000  
G20  20543045.349   107954432.337       -2963.277          47.000  
G18  20992301.798   110315290.964        1501.386          47.000  
G13  22524141.783   118365161.994       -2773.811          37.000  
C 3  37427465.951   194894619.973        -509.155          41.000  
G12  22357941.555   117491776.371        2950.006          47.000  
G10  23004412.949   120889019.691        2752.652          43.000  
C 6  35997235.644   187446996.994         -19.083          42.000  
C 1  36816183.244   191711483.447        -488.533          43.000  
C 4  37071923.951   193043201.701        -514.364          43.000  
J 1  37221586.182   195600759.273          88.414          45.000  
J 2  36952639.692   194187436.523       -1161.106          45.000  
G25  24967954.813   131207530.911        3273.723          27.000  
G21  22802743.723   119829211.264       -1990.670          45.000  
> 2017 10 10 10 23 32.9980000  0 15                     
G24  19614503.453   103074911.467        -468.753          50.000  
G15  20493350.732   107693284.587       -1624.201          49.000  
G20  20543158.051   107955025.015       -2963.421          47.000  
G18  20992244.640   110314990.709        1501.240          47.000  
G13  22524247.278   118365716.756       -2773.773          37.000  
C 3  37427485.731   194894721.780        -509.204          41.000  
G12  22357829.342   117491186.390        2949.863          47.000  
G10  23004308.195   120888469.109        2752.824          43.000  
C 6  35997236.368   187447000.825         -19.080          42.000  
C 1  36816201.995   191711581.186        -488.654          43.000  
C 4  37071943.800   193043304.588        -514.500          43.000  
J 1  37221582.710   195600741.595          88.338          45.000  
J 2  36952683.876   194187668.759       -1161.208          45.000  
G25  24967830.620   131206876.132        3273.728          27.000  
G21  22802819.509   119829609.394       -1990.755          45.000  
> 2017 10 10 10 23 33.1980000  0 15                     
G24  19614521.279   103075005.225        -468.868          50.000  
G15  20493412.541   107693609.448       -1624.384          49.000  
G20  20543270.727   107955617.720       -2963.569          47.000  
G18  20992187.456   110314690.463        1501.013          47.000  
G13  22524352.878   118366271.528       -2773.909          37.000  
C 3  37427505.240   194894823.576        -509.116          41.000  
G12  22357717.050   117490596.436        2949.677          47.000  
G10  23004203.363   120887918.556        2752.610          43.000  
C 6  35997237.240   187447004.648         -19.106          42.000  
C 1  36816220.788   191711678.927        -488.835          43.000  
C 4  37071963.432   193043407.484        -514.608          43.000  
J 1  37221579.394   195600723.932          88.232          44.000  
J 2  36952728.086   194187900.999       -1161.234          45.000  
G25  24967705.885   131206221.451        3273.243          27.000  
G21  22802895.322   119830007.540       -1990.865          45.000  
> 2017 10 10 10 23 33.3980000  0 15                     
G24  19614538.973   103075099.032        -469.256          50.000  
G15  20493474.420   107693934.334       -1624.750          49.000  
G20  20543383.438   107956210.466       -2963.997          47.000  
G18  20992130.324   110314390.257        1500.740          47.000  
G13  22524458.531   118366826.326       -2773.930          37.000  
C 3  37427524.776   194894925.395        -509.325          41.000  
G12  22357604.740   117490006.495        2949.519          47.000  
G10  23004098.653   120887368.017        2752.470          43.000  
C 6  35997237.991   187447008.510         -19.532          42.000  
C 1  36816239.582   191711776.679        -489.012          43.000  
C 4  37071983.264   193043510.392        -514.629          43.000  
J 1  37221576.026   195600706.293          88.110          44.000  
J 2  36952772.209   194188133.271       -1161.581          45.000  
G25  24967583.245   131205566.633        3274.134          27.000  
G21  22802971.064   119830405.732       -1991.220          45.000  
> 2017 10 10 10 23 33.5980000  0 15                     
G24  19614556.807   103075192.879        -469.432          50.000  
G15  20493536.263   107694259.255       -1624.735          49.000  
G20  20543496.184   107956803.251       -2964.069          47.000  
G18  20992073.322   110314090.086        1500.623          47.000  
G13  22524564.096   118367381.161       -2773.944          37.000  
C 3  37427544.241   194895027.250        -509.363          41.000  
G12  22357492.422   117489416.596        2949.330          47.000  
G10  23003993.952   120886817.518        2752.360          43.000  
C 6  35997238.863   187447012.382         -19.566          42.000  
C 1  36816258.350   191711874.452        -488.721          43.000  
C 4  37072003.140   193043613.339        -514.779          43.000  
J 1  37221572.641   195600688.675          87.902          44.000  
J 2  36952816.445   194188365.558       -1161.596          45.000  
G25  24967457.761   131204912.047        3272.834          27.000  
G21  22803046.659   119830803.958       -1991.385          45.000  
> 2017 10 10 10 23 33.7980000  0 15                     
G24  19614574.694   103075286.748        -469.249          50.000  
G15  20493598.220   107694584.183       -1624.620          49.000  
G20  20543609.096   107957396.046       -2963.886          47.000  
G18  20992016.138   110313789.937        1500.838          47.000  
G13  22524669.635   118367936.011       -2774.081          37.000  
C 3  37427563.821   194895129.077        -509.125          41.000  
G12  22357380.147   117488826.692        2949.698          47.000  
G10  23003889.163   120886267.020        2752.563          43.000  
C 6  35997239.640   187447016.243         -19.074          42.000  
C 1  36816277.188   191711972.244        -488.764          43.000  
C 4  37072022.885   193043716.272        -514.661          43.000  
J 1  37221569.308   195600671.053          88.083          44.000  
J 2  36952860.682   194188597.846       -1161.319          45.000  
G25  24967332.547   131204257.275        3273.641          27.000  
G21  22803122.480   119831202.188       -1991.144          45.000  
> 2017 10 10 10 23 33.9980000  0 15                     
G24  19614592.572   103075380.635        -469.609          50.000  
G15  20493660.099   107694909.120       -1624.911          49.000  
G20  20543721.746   107957988.875       -2964.383          47.000  
G18  20991959.085   110313489.800        1500.360          47.000  
G13  22524775.261   118368490.832       -2774.353          37.000  
C 3  37427583.400   194895230.922        -509.191          41.000  
G12  22357267.942   117488236.808        2949.272          47.000  
G10  23003784.349   120885716.528        2752.181          43.000  
C 6  35997240.408   187447020.108         -19.315          42.000  
C 1  36816295.824   191712070.018        -489.069          43.000  
C 4  37072042.638   193043819.201        -514.664          43.000  
J 1  37221565.966   195600653.437          87.824          44.000  
J 2  36952904.778   194188830.144       -1161.707          45.000  
G25  24967207.368   131203602.570        3273.573          27.000  
G21  22803198.240   119831600.444       -1991.495          45.000  
> 2017 10 10 10 23 34.1980000  0 15                     
G24  19614610.441   103075474.562        -469.643          50.000  
G15  20493721.951   107695234.087       -1624.806          49.000  
G20  20543834.570   107958581.725       -2964.246          47.000  
G18  20991901.926   110313189.691        1500.546          47.000  
G13  22524880.887   118369045.679       -2773.836          37.000  
C 3  37427602.839   194895332.776        -509.165          41.000  
G12  22357155.737   117487646.943        2949.466          47.000  
G10  23003679.560   120885166.069        2752.213          43.000  
C 6  35997241.158   187447023.997         -19.293          42.000  
C 1  36816314.644   191712167.802        -488.701          43.000  
C 4  37072062.532   193043922.177        -514.866          43.000  
J 1  37221562.537   195600635.830          88.180          44.000  
J 2  36952949.111   194189062.452       -1161.455          45.000  
G25  24967083.532   131202947.886        3273.509          27.000  
G21  22803274.052   119831998.726       -1991.302          45.000  
> 2017 10 10 10 23 34.3980000  0 15                     
G24  19614628.249   103075568.526        -469.926          50.000  
G15  20493783.917   107695559.077       -1624.896          49.000  
G20  20543947.482   107959174.615       -2964.397          47.000  
G18  20991844.821   110312889.621        1500.482          47.000  
G13  22524986.496   118369600.580       -2774.514          37.000  
C 3  37427622.445   194895434.653        -509.263          41.000  
G12  22357043.480   117487057.112        2949.200          47.000  
G10  23003574.824   120884615.632        2752.246          43.000  
C 6  35997241.969   187447027.899         -19.342          42.000  
C 1  36816333.482   191712265.630        -488.801          43.000  
C 4  37072082.250   193044025.139        -514.844          43.000  
J 1  37221559.143   195600618.260          88.107          44.000  
J 2  36952993.408   194189294.792       -1161.691          45.000  
G25  24966959.217   131202293.190        3273.388          27.000  
G21  22803349.856   119832397.060       -1991.731          45.000  
> 2017 10 10 10 23 34.5980000  0 15                     
G24  19614646.170   103075662.493        -470.144          50.000  
G15  20493845.769   107695884.071       -1625.035          49.000  
G20  20544060.201   107959767.522       -2964.717          47.000  
G18  20991787.723   110312589.557        1500.146          47.000  
G13  22525092.104   118370155.448       -2774.530          37.000  
C 3  37427641.945   194895536.526        -509.641          41.000  
G12  22356931.310   117486467.272        2948.983          47.000  
G10  23003470.114   120884065.194        2752.141          43.000  
C 6  35997242.589   187447031.801         -19.785          42.000  
C 1  36816352.337   191712363.450        -489.271          43.000  
C 4  37072102.048   193044128.096        -514.917          43.000  
J 1  37221555.862   195600600.676          87.755          45.000  
J 2  36953037.592   194189527.111       -1161.721          45.000  
G25  24966834.177   131201638.480        3273.519          27.000  
G21  22803425.712   119832795.371       -1991.812          45.000  
> 2017 10 10 10 23 34.7980000  0 15                     
G24  19614664.083   103075756.503        -470.019          50.000  
G15  20493907.621   107696209.106       -1624.990          49.000  
G20  20544173.087   107960360.458       -2964.620          47.000  
G18  20991730.530   110312289.523        1500.346          47.000  
G13  22525197.670   118370710.359       -2774.698          37.000  
C 3  37427661.524   194895638.412        -509.193          41.000  
G12  22356819.157   117485877.463        2949.137          47.000  
G10  23003365.430   120883514.790        2752.150          43.000  
C 6  35997243.357   187447035.704         -19.367          42.000  
C 1  36816371.253   191712461.272        -489.220          43.000  
C 4  37072121.888   193044231.074        -514.688          43.000  
J 1  37221552.591   195600583.106          88.005          45.000  
J 2  36953081.933   194189759.460       -1161.590          45.000  
G25  24966709.033   131200983.798        3273.502          27.000  
G21  22803501.568   119833193.736       -1991.809          45.000  
> 2017 10 10 10 23 34.9980000  0 15                     
G24  19614681.899   103075850.501        -470.191          50.000  
G15  20493969.456   107696534.112       -1625.117          49.000  
G20  20544285.859   107960953.381       -2964.646          47.000  
G18  20991673.416   110311989.476        1500.237          47.000  
G13  22525303.287   118371265.203       -2774.141          37.000  
C 3  37427681.086   194895740.266        -509.250          41.000  
G12  22356706.909   117485287.624        2949.103          47.000  
G10  23003260.633   120882964.347        2752.184          43.000  
C 6  35997244.020   187447039.594         -19.782          42.000  
C 1  36816390.038   191712559.058        -489.015          43.000  
C 4  37072141.616   193044334.015        -514.761          43.000  
J 1  37221549.170   195600565.512          88.000          44.000  
J 2  36953126.169   194189991.772       -1161.578          45.000  
G25  24966583.522   131200329.069        3273.507          27.000  
G21  22803577.363   119833592.066       -1991.800          45.000  
> 2017 10 10 10 23 35.1980000  0 15                     
G24  19614699.725   103075944.554        -470.177          50.000  
G15  20494031.256   107696859.164       -1625.080          49.000  
G20  20544398.744   107961546.378       -2964.960          47.000  
G18  20991616.441   110311689.490        1500.013          47.000  
G13  22525408.852   118371820.130       -2774.259          37.000  
C 3  37427700.709   194895842.174        -509.517          41.000  
G12  22356594.713   117484697.840        2949.031          47.000  
G10  23003155.888   120882413.964        2752.021          43.000  
C 6  35997244.849   187447043.508         -19.696          42.000  
C 1  36816408.815   191712656.879        -488.882          43.000  
C 4  37072161.387   193044437.007        -514.678          43.000  
J 1  37221545.855   195600547.960          87.882          44.000  
J 2  36953170.371   194190224.131       -1161.559          45.000  
G25  24966460.559   131199674.414        3272.730          27.000  
G21  22803653.150   119833990.465       -1991.782          45.000  
> 2017 10 10 10 23 35.3980000  0 15                     
G24  19614717.759   103076038.629        -470.424          50.000  
G15  20494093.178   107697184.223       -1625.282          49.000  
G20  20544511.595   107962139.364       -2965.023          47.000  
G18  20991559.230   110311389.505        1499.865          47.000  
G13  22525514.522   118372375.052       -2774.579          37.000  
C 3  37427720.218   194895944.045        -509.433          41.000  
G12  22356482.499   117484108.056        2948.830          47.000  
G10  23003051.230   120881863.574        2751.885          43.000  
C 6  35997245.678   187447047.420         -19.861          42.000  
C 1  36816427.547   191712754.712        -489.220          43.000  
C 4  37072181.080   193044539.984        -514.991          43.000  
J 1  37221542.400   195600530.395          87.841          44.000  
J 2  36953214.572   194190456.494       -1161.882          45.000  
G25  24966337.082   131199019.670        3273.665          26.000  
G21  22803728.988   119834388.869       -1992.097          45.000  
> 2017 10 10 10 23 35.5980000  0 15                     
G24  19614735.663   103076132.726        -470.496          50.000  
G15  20494155.170   107697509.305       -1625.401          49.000  
G20  20544624.411   107962732.388       -2965.129          47.000  
G18  20991502.142   110311089.548        1499.689          47.000  
G13  22525620.296   118372929.973       -2774.340          37.000  
C 3  37427739.823   194896045.943        -509.355          41.000  
G12  22356370.268   117483518.284        2948.865          47.000  
G10  23002946.502   120881313.199        2751.874          43.000  
C 6  35997246.489   187447051.330         -19.750          42.000  
C 1  36816446.463   191712852.552        -489.212          43.000  
C 4  37072200.982   193044642.959        -514.588          43.000  
J 1  37221539.102   195600512.845          87.932          44.000  
J 2  36953258.922   194190688.853       -1161.741          45.000  
G25  24966212.548   131198364.977        3273.428          26.000  
G21  22803804.897   119834787.290       -1992.004          45.000  
> 2017 10 10 10 23 35.7980000  0 15                     
G24  19614753.559   103076226.810        -470.155          50.000  
G15  20494217.040   107697834.355       -1625.007          49.000  
G20  20544737.244   107963325.392       -2964.740          47.000  
G18  20991445.010   110310789.567        1500.207          47.000  
G13  22525725.792   118373484.870       -2774.234          37.000  
C 3  37427759.455   194896147.815        -509.119          41.000  
G12  22356258.072   117482928.490        2949.201          47.000  
G10  23002841.627   120880762.809        2752.174          43.000  
C 6  35997247.344   187447055.201         -19.003          42.000  
C 1  36816465.179   191712950.346        -488.851          43.000  
C 4  37072220.727   193044745.932        -514.469          43.000  
J 1  37221535.742   195600495.265          88.172          44.000  
J 2  36953303.088   194190921.189       -1161.436          45.000  
G25  24966087.125   131197710.222        3273.871          26.000  
G21  22803880.831   119835185.699       -1991.652          45.000  
> 2017 10 10 10 23 35.9980000  0 15                     
G24  19614771.471   103076320.919        -470.358          50.000  
G15  20494278.962   107698159.423       -1625.195          49.000  
G20  20544850.103   107963918.431       -2965.070          47.000  
G18  20991387.965   110310489.608        1500.041          47.000  
G13  22525831.383   118374039.783       -2774.299          37.000  
C 3  37427779.086   194896249.674        -509.070          41.000  
G12  22356145.762   117482338.703        2949.108          47.000  
G10  23002736.934   120880212.411        2752.132          43.000  
C 6  35997248.060   187447059.086         -19.156          42.000  
C 1  36816483.833   191713048.138        -488.594          43.000  
C 4  37072240.384   193044848.885        -514.633          43.000  
J 1  37221532.392   195600477.686          88.097          45.000  
J 2  36953347.194   194191153.518       -1161.449          45.000  
G25  24965962.295   131197055.467        3273.887          26.000  
G21  22803956.731   119835584.126       -1991.947          45.000  
> 2017 10 10 10 23 36.1980000  0 15                     
G24  19614789.436   103076415.055        -470.711          50.000  
G15  20494340.849   107698484.507       -1625.376          49.000  
G20  20544962.840   107964511.477       -2965.210          47.000  
G18  20991330.912   110310189.680        1499.490          47.000  
G13  22525937.053   118374594.693       -2774.525          37.000  
C 3  37427798.657   194896351.542        -509.049          41.000  
G12  22356033.453   117481748.932        2948.901          47.000  
G10  23002632.198   120879662.032        2751.934          43.000  
C 6  35997248.784   187447062.978         -19.420          42.000  
C 1  36816502.583   191713145.959        -488.837          43.000  
C 4  37072260.007   193044951.846        -514.685          43.000  
J 1  37221529.076   195600460.115          87.948          45.000  
J 2  36953391.535   194191385.870       -1161.682          45.000  
G25  24965838.634   131196400.756        3273.612          26.000  
G21  22804032.631   119835982.570       -1992.194          45.000  
> 2017 10 10 10 23 36.3980000  0 15                     
G24  19614807.253   103076509.217        -470.938          50.000  
G15  20494402.693   107698809.605       -1625.707          49.000  
G20  20545075.569   107965104.561       -2965.704          47.000  
G18  20991273.788   110309889.757        1499.300          47.000  
G13  22526042.644   118375149.612       -2774.716          37.000  
C 3  37427818.341   194896453.413        -509.189          41.000  
G12  22355921.152   117481159.175        2948.671          47.000  
G10  23002527.436   120879111.683        2751.566          43.000  
C 6  35997249.621   187447066.868         -19.616          42.000  
C 1  36816521.325   191713243.789        -489.319          43.000  
C 4  37072279.761   193045054.814        -514.890          43.000  
J 1  37221525.656   195600442.554          87.615          45.000  
J 2  36953435.658   194191618.219       -1161.897          45.000  
G25  24965713.952   131195745.979        3273.977          26.000  
G21  22804108.522   119836381.037       -1992.420          45.000  
> 2017 10 10 10 23 36.5980000  0 15                     
G24  19614825.043   103076603.362        -470.834          50.000  
G15  20494464.597   107699134.677       -1625.330          49.000  
G20  20545188.384   107965697.612       -2965.412          47.000  
G18  20991216.691   110309589.818        1499.578          47.000  
G13  22526148.192   118375704.497       -2774.226          37.000  
C 3  37427837.798   194896555.259        -509.281          41.000  
G12  22355808.868   117480569.389        2948.873          47.000  
G10  23002422.664   120878561.277        2751.951          43.000  
C 6  35997250.476   187447070.723         -19.220          42.000  
C 1  36816540.162   191713341.547        -488.957          43.000  
C 4  37072299.497   193045157.749        -514.891          43.000  
J 1  37221522.192   195600424.951          87.973          44.000  
J 2  36953479.929   194191850.532       -1161.632          45.000  
G25  24965590.317   131195091.239        3273.542          26.000  
G21  22804184.256   119836779.474       -1992.250          45.000  
> 2017 10 10 10 23 36.7980000  0 15                     
G24  19614842.851   103076697.500        -470.550          50.000  
G15  20494526.441   107699459.734       -1625.143          49.000  
G20  20545301.261   107966290.661       -2965.042          47.000  
G18  20991159.629   110309289.861        1500.054          47.000  
G13  22526253.783   118376259.357       -2773.586          37.000  
C 3  37427857.377   194896657.084        -508.895          41.000  
G12  22355696.620   117479979.580        2949.286          47.000  
G10  23002317.841   120878010.874        2752.167          43.000  
C 6  35997251.297   187447074.558         -19.027          42.000  
C 1  36816558.886   191713439.298        -488.283          43.000  
C 4  37072319.320   193045260.645        -514.192          43.000  
J 1  37221518.885   195600407.324          88.352          45.000  
J 2  36953524.252   194192082.827       -1161.268          45.000  
G25  24965465.548   131194436.393        3274.424          26.000  
G21  22804260.121   119837177.907       -1991.880          45.000  
> 2017 10 10 10 23 36.9980000  0 15                     
G24  19614860.930   103076791.648        -470.629          50.000  
G15  20494588.346   107699784.772       -1625.075          49.000  
G20  20545413.998   107966883.713       -2965.193          47.000  
G18  20991102.488   110308989.906        1499.875          47.000  
G13  22526359.383   118376814.236       -2774.373          37.000  
C 3  37427876.816   194896758.883        -508.999          41.000  
G12  22355584.424   117479389.763        2949.183          47.000  
G10  23002213.175   120877460.456        2752.155          43.000  
C 6  35997252.056   187447078.361         -18.835          42.000  
C 1  36816577.663   191713537.039        -488.612          43.000  
C 4  37072339.109   193045363.542        -514.304          43.000  
J 1  37221515.500   195600389.689          88.422          44.000  
J 2  36953568.401   194192315.110       -1161.341          45.000  
G25  24965340.919   131193781.548        3273.920          26.000  
G21  22804336.003   119837576.341       -1992.052          45.000  
> 2017 10 10 10 23 37.1980000  0 15                     
G24  19614878.790   103076885.829        -470.818          50.000  
G15  20494650.364   107700109.848       -1625.217          49.000  
G20  20545526.805   107967476.799       -2965.308          47.000  
G18  20991045.330   110308689.985        1499.816          47.000  
G13  22526464.992   118377369.102       -2774.265          37.000  
C 3  37427896.474   194896860.683        -509.127          41.000  
G12  22355472.140   117478799.970        2949.137          47.000  
G10  23002108.456   120876910.054        2752.125          43.000  
C 6  35997252.815   187447082.195         -18.977          42.000  
C 1  36816596.361   191713634.800        -488.731          43.000  
C 4  37072358.862   193045466.436        -514.056          43.000  
J 1  37221512.202   195600372.064          88.311          45.000  
J 2  36953612.681   194192547.401       -1161.362          46.000  
G25  24965216.490   131193126.739        3274.260          26.000  
G21  22804411.789   119837974.794       -1992.063          45.000  
> 2017 10 10 10 23 37.3980000  0 15                     
G24  19614896.772   103076980.016        -471.041          50.000  
G15  20494712.207   107700434.923       -1625.481          49.000  
G20  20545639.751   107968069.887       -2965.418          47.000  
G18  20990988.250   110308390.064        1499.630          47.000  
G13  22526570.626   118377923.967       -2774.378          37.000  
C 3  37427916.088   194896962.483        -509.017          41.000  
G12  22355359.822   117478210.179        2949.008          47.000  
G10  23002003.772   120876359.653        2751.977          43.000  
C 6  35997253.626   187447086.013         -19.041          42.000  
C 1  36816615.076   191713732.522        -488.661          43.000  
C 4  37072378.572   193045569.333        -514.445          43.000  
J 1  37221508.860   195600354.429          88.241          45.000  
J 2  36953656.804   194192779.683       -1161.376          46.000  
G25  24965092.532   131192471.919        3273.971          26.000  
G21  22804487.645   119838373.258       -1992.464          45.000  
> 2017 10 10 10 23 37.5980000  0 15                     
G24  19614914.711   103077074.242        -471.105          50.000  
G15  20494774.033   107700760.020       -1625.517          49.000  
G20  20545752.663   107968663.020       -2965.690          47.000  
G18  20990931.118   110308090.178        1499.459          47.000  
G13  22526676.322   118378478.848       -2774.163          37.000  
C 3  37427935.632   194897064.304        -509.046          41.000  
G12  22355247.538   117477620.407        2948.865          47.000  
G10  23001899.062   120875809.276        2751.923          43.000  
C 6  35997254.385   187447089.848         -19.131          42.000  
C 1  36816633.792   191713830.265        -488.459          43.000  
C 4  37072398.431   193045672.245        -514.470          43.000  
J 1  37221505.484   195600336.815          88.103          45.000  
J 2  36953700.971   194193011.988       -1161.487          45.000  
G25  24964967.449   131191817.024        3274.484          25.000  
G21  22804563.458   119838771.747       -1992.321          45.000  
> 2017 10 10 10 23 37.7980000  0 15                     
G24  19614932.685   103077168.526        -471.541          50.000  
G15  20494835.886   107701085.171       -1625.798          49.000  
G20  20545865.601   107969256.212       -2966.214          47.000  
G18  20990874.039   110307790.352        1499.184          47.000  
G13  22526782.018   118379033.794       -2774.878          37.000  
C 3  37427955.177   194897166.162        -509.313          41.000  
G12  22355135.272   117477030.686        2948.526          47.000  
G10  23001794.291   120875258.949        2751.586          43.000  
C 6  35997255.170   187447093.723         -19.493          42.000  
C 1  36816652.646   191713928.073        -488.911          43.000  
C 4  37072418.080   193045775.199        -514.835          43.000  
J 1  37221502.133   195600319.244          87.721          44.000  
J 2  36953745.233   194193244.339       -1161.845          45.000  
G25  24964841.598   131191162.294        3273.821          25.000  
G21  22804639.244   119839170.297       -1992.805          45.000  
> 2017 10 10 10 23 37.9980000  0 15                     
G24  19614950.667   103077262.831        -471.747          50.000  
G15  20494897.764   107701410.330       -1625.864          49.000  
G20  20545978.460   107969849.407       -2966.063          47.000  
G18  20990816.924   110307490.538        1499.082          47.000  
G13  22526887.496   118379588.732       -2774.725          37.000  
C 3  37427974.826   194897268.019        -509.188          41.000  
G12  22355023.015   117476440.965        2948.601          47.000  
G10  23001689.659   120874708.626        2751.519          43.000  
C 6  35997255.999   187447097.591         -19.329          42.000  
C 1  36816671.449   191714025.867        -488.962          43.000  
C 4  37072437.990   193045878.138        -514.523          43.000  
J 1  37221498.774   195600301.667          87.916          45.000  
J 2  36953789.548   194193476.683       -1161.783          45.000  
G25  24964716.070   131190507.449        3274.136          25.000  
G21  22804715.083   119839568.857       -1992.693          45.000  
> 2017 10 10 10 23 38.1980000  0 15                     
G24  19614968.615   103077357.148        -471.632          50.000  
G15  20494959.677   107701735.503       -1625.886          49.000  
G20  20546091.320   107970442.634       -2966.256          47.000  
G18  20990759.792   110307190.749        1498.812          47.000  
G13  22526993.175   118380143.682       -2774.669          37.000  
C 3  37427994.396   194897369.880        -509.324          41.000  
G12  22354910.732   117475851.266        2948.472          47.000  
G10  23001584.967   120874158.320        2751.526          43.000  
C 6  35997256.706   187447101.464         -19.194          42.000  
C 1  36816690.243   191714123.664        -489.150          43.000  
C 4  37072457.657   193045981.095        -514.893          43.000  
J 1  37221495.581   195600284.100          87.759          45.000  
J 2  36953833.723   194193709.031       -1161.725          45.000  
G25  24964592.549   131189852.664        3273.804          25.000  
G21  22804790.843   119839967.448       -1993.068          45.000  
> 2017 10 10 10 23 38.3980000  0 15                     
G24  19614986.510   103077451.503        -471.742          50.000  
G15  20495021.486   107702060.693       -1626.059          49.000  
G20  20546204.240   107971035.881       -2966.262          47.000  
G18  20990702.756   110306890.973        1498.766          47.000  
G13  22527098.853   118380698.639       -2775.118          37.000  
C 3  37428013.870   194897471.743        -509.514          41.000  
G12  22354798.387   117475261.572        2948.440          47.000  
G10  23001480.248   120873608.017        2751.402          43.000  
C 6  35997257.500   187447105.339         -19.242          42.000  
C 1  36816709.089   191714221.455        -488.858          43.000  
C 4  37072477.367   193046084.042        -514.978          43.000  
J 1  37221492.204   195600266.543          87.716          45.000  
J 2  36953877.968   194193941.396       -1161.839          45.000  
G25  24964467.971   131189197.840        3274.366          25.000  
G21  22804866.751   119840366.038       -1992.988          45.000  
> 2017 10 10 10 23 38.5980000  0 15                     
G24  19615004.327   103077545.921        -471.878          50.000  
G15  20495083.461   107702385.928       -1625.910          49.000  
G20  20546317.160   107971629.188       -2966.223          47.000  
G18  20990645.755   110306591.249        1498.807          47.000  
G13  22527204.523   118381253.636       -2774.770          37.000  
C 3  37428033.345   194897573.640        -509.197          41.000  
